{"type": "FeatureCollection", "features": [{"type": "Feature", "geometry": {"type": "Point", "coordinates": [5.329, 45.977]}, "properties": {"nom": "AMBERIEU", "altitude": 250, "date_debut_serie(YYYYMM)": 195101, "date_fin_serie(YYYYMM)": 201512}}, {"type": "Feature", "geometry": {"type": "Point", "coordinates": [3.206, 49.818]}, "properties": {"nom": "ST QUENTIN", "altitude": 98, "date_debut_serie(YYYYMM)": 195301, "date_fin_serie(YYYYMM)": 201512}}, {"type": "Feature", "geometry": {"type": "Point", "coordinates": [3.226, 46.276]}, "properties": {"nom": "CHAREIL-CINTRAT_SAPC", "altitude": 286, "date_debut_serie(YYYYMM)": 195101, "date_fin_serie(YYYYMM)": 202212}}, {"type": "Feature", "geometry": {"type": "Point", "coordinates": [3.399, 46.167]}, "properties": {"nom": "VICHY-CHARMEIL", "altitude": 249, "date_debut_serie(YYYYMM)": 195101, "date_fin_serie(YYYYMM)": 202212}}, {"type": "Feature", "geometry": {"type": "Point", "coordinates": [3.423, 46.536]}, "properties": {"nom": "MONTBEUGNY", "altitude": 275, "date_debut_serie(YYYYMM)": 195901, "date_fin_serie(YYYYMM)": 202212}}, {"type": "Feature", "geometry": {"type": "Point", "coordinates": [3.338, 46.284]}, "properties": {"nom": "PARAY-SOUS-BRIAILLES", "altitude": 250, "date_debut_serie(YYYYMM)": 195101, "date_fin_serie(YYYYMM)": 202212}}, {"type": "Feature", "geometry": {"type": "Point", "coordinates": [6.67, 44.391]}, "properties": {"nom": "BARCELONNETTE", "altitude": 1155, "date_debut_serie(YYYYMM)": 195901, "date_fin_serie(YYYYMM)": 202012}}, {"type": "Feature", "geometry": {"type": "Point", "coordinates": [5.99, 44.062]}, "properties": {"nom": "ST AUBAN", "altitude": 458, "date_debut_serie(YYYYMM)": 195901, "date_fin_serie(YYYYMM)": 201912}}, {"type": "Feature", "geometry": {"type": "Point", "coordinates": [6.509, 44.571]}, "properties": {"nom": "EMBRUN", "altitude": 873, "date_debut_serie(YYYYMM)": 195101, "date_fin_serie(YYYYMM)": 202012}}, {"type": "Feature", "geometry": {"type": "Point", "coordinates": [6.195, 44.81]}, "properties": {"nom": "CHAPELLE-EN-VALGAUDEMAR", "altitude": 1270, "date_debut_serie(YYYYMM)": 195101, "date_fin_serie(YYYYMM)": 202012}}, {"type": "Feature", "geometry": {"type": "Point", "coordinates": [6.514, 44.972]}, "properties": {"nom": "LE MONETIER LES BAINS", "altitude": 1459, "date_debut_serie(YYYYMM)": 195101, "date_fin_serie(YYYYMM)": 202012}}, {"type": "Feature", "geometry": {"type": "Point", "coordinates": [6.552, 44.501]}, "properties": {"nom": "LES ORRES", "altitude": 1446, "date_debut_serie(YYYYMM)": 195901, "date_fin_serie(YYYYMM)": 201812}}, {"type": "Feature", "geometry": {"type": "Point", "coordinates": [6.024, 44.782]}, "properties": {"nom": "ST FIRMIN", "altitude": 950, "date_debut_serie(YYYYMM)": 195101, "date_fin_serie(YYYYMM)": 202012}}, {"type": "Feature", "geometry": {"type": "Point", "coordinates": [6.869, 44.693]}, "properties": {"nom": "ST VERAN", "altitude": 2000, "date_debut_serie(YYYYMM)": 195101, "date_fin_serie(YYYYMM)": 202012}}, {"type": "Feature", "geometry": {"type": "Point", "coordinates": [6.64, 44.88]}, "properties": {"nom": "VILLAR ST PANCRACE", "altitude": 1310, "date_debut_serie(YYYYMM)": 195901, "date_fin_serie(YYYYMM)": 202012}}, {"type": "Feature", "geometry": {"type": "Point", "coordinates": [7.111, 43.599]}, "properties": {"nom": "ANTIBES_SAPC", "altitude": 32, "date_debut_serie(YYYYMM)": 195901, "date_fin_serie(YYYYMM)": 201912}}, {"type": "Feature", "geometry": {"type": "Point", "coordinates": [6.951, 43.557]}, "properties": {"nom": "CANNES", "altitude": 2, "date_debut_serie(YYYYMM)": 195901, "date_fin_serie(YYYYMM)": 201912}}, {"type": "Feature", "geometry": {"type": "Point", "coordinates": [7.209, 43.649]}, "properties": {"nom": "NICE", "altitude": 2, "date_debut_serie(YYYYMM)": 195901, "date_fin_serie(YYYYMM)": 201912}}, {"type": "Feature", "geometry": {"type": "Point", "coordinates": [7.029, 43.623]}, "properties": {"nom": "VALBONNE-SOPHIA", "altitude": 238, "date_debut_serie(YYYYMM)": 195901, "date_fin_serie(YYYYMM)": 201912}}, {"type": "Feature", "geometry": {"type": "Point", "coordinates": [4.41, 44.602]}, "properties": {"nom": "AUBENAS SA", "altitude": 176, "date_debut_serie(YYYYMM)": 195901, "date_fin_serie(YYYYMM)": 201912}}, {"type": "Feature", "geometry": {"type": "Point", "coordinates": [4.438, 44.915]}, "properties": {"nom": "CHEYLARD SA", "altitude": 418, "date_debut_serie(YYYYMM)": 195901, "date_fin_serie(YYYYMM)": 201912}}, {"type": "Feature", "geometry": {"type": "Point", "coordinates": [3.982, 44.773]}, "properties": {"nom": "ISSANLAS", "altitude": 1215, "date_debut_serie(YYYYMM)": 196001, "date_fin_serie(YYYYMM)": 201812}}, {"type": "Feature", "geometry": {"type": "Point", "coordinates": [4.535, 45.118]}, "properties": {"nom": "LALOUVESC", "altitude": 1090, "date_debut_serie(YYYYMM)": 195701, "date_fin_serie(YYYYMM)": 201812}}, {"type": "Feature", "geometry": {"type": "Point", "coordinates": [4.049, 44.6]}, "properties": {"nom": "LOUBARESSE", "altitude": 1220, "date_debut_serie(YYYYMM)": 195601, "date_fin_serie(YYYYMM)": 201812}}, {"type": "Feature", "geometry": {"type": "Point", "coordinates": [4.497, 44.582]}, "properties": {"nom": "MIRABEL SA", "altitude": 275, "date_debut_serie(YYYYMM)": 195901, "date_fin_serie(YYYYMM)": 201912}}, {"type": "Feature", "geometry": {"type": "Point", "coordinates": [4.747, 44.818]}, "properties": {"nom": "ST-LAURENT PAPE", "altitude": 112, "date_debut_serie(YYYYMM)": 195901, "date_fin_serie(YYYYMM)": 201912}}, {"type": "Feature", "geometry": {"type": "Point", "coordinates": [4.652, 44.9]}, "properties": {"nom": "VERNOUX", "altitude": 561, "date_debut_serie(YYYYMM)": 195901, "date_fin_serie(YYYYMM)": 201912}}, {"type": "Feature", "geometry": {"type": "Point", "coordinates": [5.04, 49.658]}, "properties": {"nom": "DOUZY", "altitude": 153, "date_debut_serie(YYYYMM)": 195901, "date_fin_serie(YYYYMM)": 201512}}, {"type": "Feature", "geometry": {"type": "Point", "coordinates": [4.372, 49.397]}, "properties": {"nom": "JUNIVILLE", "altitude": 90, "date_debut_serie(YYYYMM)": 195901, "date_fin_serie(YYYYMM)": 201512}}, {"type": "Feature", "geometry": {"type": "Point", "coordinates": [5.217, 49.617]}, "properties": {"nom": "LINAY", "altitude": 177, "date_debut_serie(YYYYMM)": 195301, "date_fin_serie(YYYYMM)": 201512}}, {"type": "Feature", "geometry": {"type": "Point", "coordinates": [1.895, 42.724]}, "properties": {"nom": "ASCOU LAVAIL", "altitude": 1100, "date_debut_serie(YYYYMM)": 195901, "date_fin_serie(YYYYMM)": 201812}}, {"type": "Feature", "geometry": {"type": "Point", "coordinates": [1.107, 43.005]}, "properties": {"nom": "ST GIRONS", "altitude": 414, "date_debut_serie(YYYYMM)": 195501, "date_fin_serie(YYYYMM)": 201812}}, {"type": "Feature", "geometry": {"type": "Point", "coordinates": [3.505, 48.44]}, "properties": {"nom": "BOUY-SUR-ORVIN", "altitude": 102, "date_debut_serie(YYYYMM)": 195301, "date_fin_serie(YYYYMM)": 201512}}, {"type": "Feature", "geometry": {"type": "Point", "coordinates": [2.912, 43.308]}, "properties": {"nom": "ARGELIERS", "altitude": 31, "date_debut_serie(YYYYMM)": 195101, "date_fin_serie(YYYYMM)": 201912}}, {"type": "Feature", "geometry": {"type": "Point", "coordinates": [2.296, 43.215]}, "properties": {"nom": "CARCASSONNE", "altitude": 128, "date_debut_serie(YYYYMM)": 195101, "date_fin_serie(YYYYMM)": 201912}}, {"type": "Feature", "geometry": {"type": "Point", "coordinates": [1.949, 43.305]}, "properties": {"nom": "CASTELNAUDARY", "altitude": 160, "date_debut_serie(YYYYMM)": 195901, "date_fin_serie(YYYYMM)": 202212}}, {"type": "Feature", "geometry": {"type": "Point", "coordinates": [2.836, 43.892]}, "properties": {"nom": "MONTLAUR", "altitude": 374, "date_debut_serie(YYYYMM)": 195501, "date_fin_serie(YYYYMM)": 201612}}, {"type": "Feature", "geometry": {"type": "Point", "coordinates": [2.866, 44.152]}, "properties": {"nom": "SALLES CURAN", "altitude": 959, "date_debut_serie(YYYYMM)": 195101, "date_fin_serie(YYYYMM)": 201812}}, {"type": "Feature", "geometry": {"type": "Point", "coordinates": [5.425, 43.53]}, "properties": {"nom": "AIX EN PROVENCE", "altitude": 173, "date_debut_serie(YYYYMM)": 195901, "date_fin_serie(YYYYMM)": 201912}}, {"type": "Feature", "geometry": {"type": "Point", "coordinates": [4.928, 43.523]}, "properties": {"nom": "ISTRES", "altitude": 23, "date_debut_serie(YYYYMM)": 195601, "date_fin_serie(YYYYMM)": 201912}}, {"type": "Feature", "geometry": {"type": "Point", "coordinates": [5.216, 43.438]}, "properties": {"nom": "MARIGNANE", "altitude": 9, "date_debut_serie(YYYYMM)": 195901, "date_fin_serie(YYYYMM)": 201912}}, {"type": "Feature", "geometry": {"type": "Point", "coordinates": [5.765, 43.708]}, "properties": {"nom": "CADARACHE-LA VERRERIE-CEA", "altitude": 296, "date_debut_serie(YYYYMM)": 196001, "date_fin_serie(YYYYMM)": 201912}}, {"type": "Feature", "geometry": {"type": "Point", "coordinates": [5.108, 43.613]}, "properties": {"nom": "SALON DE PROVENCE", "altitude": 58, "date_debut_serie(YYYYMM)": 195601, "date_fin_serie(YYYYMM)": 201912}}, {"type": "Feature", "geometry": {"type": "Point", "coordinates": [-0.456, 49.18]}, "properties": {"nom": "CAEN-CARPIQUET", "altitude": 67, "date_debut_serie(YYYYMM)": 195101, "date_fin_serie(YYYYMM)": 202212}}, {"type": "Feature", "geometry": {"type": "Point", "coordinates": [0.167, 49.365]}, "properties": {"nom": "ST GATIEN DES B", "altitude": 139, "date_debut_serie(YYYYMM)": 195101, "date_fin_serie(YYYYMM)": 202212}}, {"type": "Feature", "geometry": {"type": "Point", "coordinates": [2.711, 45.173]}, "properties": {"nom": "LE CLAUX", "altitude": 1033, "date_debut_serie(YYYYMM)": 196101, "date_fin_serie(YYYYMM)": 201812}}, {"type": "Feature", "geometry": {"type": "Point", "coordinates": [-0.316, 45.665]}, "properties": {"nom": "COGNAC", "altitude": 30, "date_debut_serie(YYYYMM)": 195301, "date_fin_serie(YYYYMM)": 201712}}, {"type": "Feature", "geometry": {"type": "Point", "coordinates": [0.1, 45.628]}, "properties": {"nom": "LA COURONNE", "altitude": 58, "date_debut_serie(YYYYMM)": 195301, "date_fin_serie(YYYYMM)": 201712}}, {"type": "Feature", "geometry": {"type": "Point", "coordinates": [0.003, 45.262]}, "properties": {"nom": "RIOUX MARTIN", "altitude": 81, "date_debut_serie(YYYYMM)": 195301, "date_fin_serie(YYYYMM)": 201712}}, {"type": "Feature", "geometry": {"type": "Point", "coordinates": [-1.193, 46.178]}, "properties": {"nom": "LA ROCHELLE-ILE DE RE", "altitude": 20, "date_debut_serie(YYYYMM)": 195101, "date_fin_serie(YYYYMM)": 202112}}, {"type": "Feature", "geometry": {"type": "Point", "coordinates": [-1.412, 46.047]}, "properties": {"nom": "CHASSIRON", "altitude": 11, "date_debut_serie(YYYYMM)": 195101, "date_fin_serie(YYYYMM)": 202112}}, {"type": "Feature", "geometry": {"type": "Point", "coordinates": [-0.41, 45.458]}, "properties": {"nom": "ST GERMAIN DE LUSIGNAN", "altitude": 71, "date_debut_serie(YYYYMM)": 195301, "date_fin_serie(YYYYMM)": 201712}}, {"type": "Feature", "geometry": {"type": "Point", "coordinates": [-0.652, 45.761]}, "properties": {"nom": "SAINTES", "altitude": 38, "date_debut_serie(YYYYMM)": 195301, "date_fin_serie(YYYYMM)": 201712}}, {"type": "Feature", "geometry": {"type": "Point", "coordinates": [2.36, 47.059]}, "properties": {"nom": "BOURGES", "altitude": 161, "date_debut_serie(YYYYMM)": 195301, "date_fin_serie(YYYYMM)": 202212}}, {"type": "Feature", "geometry": {"type": "Point", "coordinates": [2.642, 47.052]}, "properties": {"nom": "AVORD", "altitude": 175, "date_debut_serie(YYYYMM)": 195301, "date_fin_serie(YYYYMM)": 202212}}, {"type": "Feature", "geometry": {"type": "Point", "coordinates": [2.417, 47.201]}, "properties": {"nom": "ST-MARTIN-D'A.", "altitude": 172, "date_debut_serie(YYYYMM)": 195901, "date_fin_serie(YYYYMM)": 202212}}, {"type": "Feature", "geometry": {"type": "Point", "coordinates": [1.988, 44.984]}, "properties": {"nom": "CAMPS", "altitude": 519, "date_debut_serie(YYYYMM)": 195701, "date_fin_serie(YYYYMM)": 201812}}, {"type": "Feature", "geometry": {"type": "Point", "coordinates": [1.74, 45.243]}, "properties": {"nom": "TULLE", "altitude": 235, "date_debut_serie(YYYYMM)": 195701, "date_fin_serie(YYYYMM)": 201812}}, {"type": "Feature", "geometry": {"type": "Point", "coordinates": [2.321, 45.559]}, "properties": {"nom": "USSEL-LAMARTINE", "altitude": 654, "date_debut_serie(YYYYMM)": 195101, "date_fin_serie(YYYYMM)": 201712}}, {"type": "Feature", "geometry": {"type": "Point", "coordinates": [8.793, 41.918]}, "properties": {"nom": "AJACCIO", "altitude": 5, "date_debut_serie(YYYYMM)": 195601, "date_fin_serie(YYYYMM)": 201912}}, {"type": "Feature", "geometry": {"type": "Point", "coordinates": [8.618, 41.908]}, "properties": {"nom": "AJACCIO-PARATA", "altitude": 124, "date_debut_serie(YYYYMM)": 195601, "date_fin_serie(YYYYMM)": 201912}}, {"type": "Feature", "geometry": {"type": "Point", "coordinates": [9.178, 41.375]}, "properties": {"nom": "CAP PERTUSATO", "altitude": 107, "date_debut_serie(YYYYMM)": 195601, "date_fin_serie(YYYYMM)": 201912}}, {"type": "Feature", "geometry": {"type": "Point", "coordinates": [8.792, 42.53]}, "properties": {"nom": "CALVI", "altitude": 57, "date_debut_serie(YYYYMM)": 196101, "date_fin_serie(YYYYMM)": 201912}}, {"type": "Feature", "geometry": {"type": "Point", "coordinates": [9.485, 42.541]}, "properties": {"nom": "BASTIA", "altitude": 10, "date_debut_serie(YYYYMM)": 195601, "date_fin_serie(YYYYMM)": 201912}}, {"type": "Feature", "geometry": {"type": "Point", "coordinates": [4.581, 47.849]}, "properties": {"nom": "CHATILLON/SEINE", "altitude": 262, "date_debut_serie(YYYYMM)": 195101, "date_fin_serie(YYYYMM)": 202212}}, {"type": "Feature", "geometry": {"type": "Point", "coordinates": [5.088, 47.268]}, "properties": {"nom": "DIJON-LONGVIC", "altitude": 219, "date_debut_serie(YYYYMM)": 195901, "date_fin_serie(YYYYMM)": 202212}}, {"type": "Feature", "geometry": {"type": "Point", "coordinates": [-3.005, 48.855]}, "properties": {"nom": "ILE-DE-BREHAT", "altitude": 25, "date_debut_serie(YYYYMM)": 195101, "date_fin_serie(YYYYMM)": 201612}}, {"type": "Feature", "geometry": {"type": "Point", "coordinates": [-2.421, 48.188]}, "properties": {"nom": "MERDRIGNAC", "altitude": 145, "date_debut_serie(YYYYMM)": 195901, "date_fin_serie(YYYYMM)": 201612}}, {"type": "Feature", "geometry": {"type": "Point", "coordinates": [-3.473, 48.826]}, "properties": {"nom": "PLOUMANAC'H", "altitude": 55, "date_debut_serie(YYYYMM)": 195101, "date_fin_serie(YYYYMM)": 201612}}, {"type": "Feature", "geometry": {"type": "Point", "coordinates": [-3.295, 48.227]}, "properties": {"nom": "ROSTRENEN", "altitude": 236, "date_debut_serie(YYYYMM)": 195501, "date_fin_serie(YYYYMM)": 201612}}, {"type": "Feature", "geometry": {"type": "Point", "coordinates": [-2.247, 48.645]}, "properties": {"nom": "SAINT-CAST-LE-G", "altitude": 35, "date_debut_serie(YYYYMM)": 195901, "date_fin_serie(YYYYMM)": 201612}}, {"type": "Feature", "geometry": {"type": "Point", "coordinates": [-2.852, 48.535]}, "properties": {"nom": "ST BRIEUC", "altitude": 135, "date_debut_serie(YYYYMM)": 196101, "date_fin_serie(YYYYMM)": 201612}}, {"type": "Feature", "geometry": {"type": "Point", "coordinates": [2.264, 45.703]}, "properties": {"nom": "LA COURTINE", "altitude": 772, "date_debut_serie(YYYYMM)": 195901, "date_fin_serie(YYYYMM)": 201812}}, {"type": "Feature", "geometry": {"type": "Point", "coordinates": [0.524, 44.823]}, "properties": {"nom": "BERGERAC", "altitude": 49, "date_debut_serie(YYYYMM)": 195801, "date_fin_serie(YYYYMM)": 201712}}, {"type": "Feature", "geometry": {"type": "Point", "coordinates": [5.782, 47.032]}, "properties": {"nom": "ARC-ET-SENANS", "altitude": 235, "date_debut_serie(YYYYMM)": 195901, "date_fin_serie(YYYYMM)": 202212}}, {"type": "Feature", "geometry": {"type": "Point", "coordinates": [5.989, 47.249]}, "properties": {"nom": "BESANCON", "altitude": 307, "date_debut_serie(YYYYMM)": 195901, "date_fin_serie(YYYYMM)": 202212}}, {"type": "Feature", "geometry": {"type": "Point", "coordinates": [6.815, 47.219]}, "properties": {"nom": "CHARQUEMONT", "altitude": 884, "date_debut_serie(YYYYMM)": 195901, "date_fin_serie(YYYYMM)": 202012}}, {"type": "Feature", "geometry": {"type": "Point", "coordinates": [6.791, 47.489]}, "properties": {"nom": "AERO-MTBL", "altitude": 315, "date_debut_serie(YYYYMM)": 195901, "date_fin_serie(YYYYMM)": 202212}}, {"type": "Feature", "geometry": {"type": "Point", "coordinates": [6.366, 47.127]}, "properties": {"nom": "EPENOY", "altitude": 752, "date_debut_serie(YYYYMM)": 195901, "date_fin_serie(YYYYMM)": 202012}}, {"type": "Feature", "geometry": {"type": "Point", "coordinates": [6.738, 47.162]}, "properties": {"nom": "LE RUSSEY", "altitude": 891, "date_debut_serie(YYYYMM)": 195901, "date_fin_serie(YYYYMM)": 202012}}, {"type": "Feature", "geometry": {"type": "Point", "coordinates": [4.725, 44.429]}, "properties": {"nom": "DONZERE", "altitude": 66, "date_debut_serie(YYYYMM)": 195901, "date_fin_serie(YYYYMM)": 201912}}, {"type": "Feature", "geometry": {"type": "Point", "coordinates": [5.711, 44.673]}, "properties": {"nom": "LUS L CROIX HTE", "altitude": 1059, "date_debut_serie(YYYYMM)": 195101, "date_fin_serie(YYYYMM)": 202012}}, {"type": "Feature", "geometry": {"type": "Point", "coordinates": [4.733, 44.581]}, "properties": {"nom": "MONTELIMAR", "altitude": 73, "date_debut_serie(YYYYMM)": 195901, "date_fin_serie(YYYYMM)": 201912}}, {"type": "Feature", "geometry": {"type": "Point", "coordinates": [4.903, 45.174]}, "properties": {"nom": "ST-BARTHELEMY-V_SAPC", "altitude": 203, "date_debut_serie(YYYYMM)": 196101, "date_fin_serie(YYYYMM)": 201912}}, {"type": "Feature", "geometry": {"type": "Point", "coordinates": [5.293, 45.009]}, "properties": {"nom": "ST-JEAN-EN-ROYA", "altitude": 308, "date_debut_serie(YYYYMM)": 195901, "date_fin_serie(YYYYMM)": 201912}}, {"type": "Feature", "geometry": {"type": "Point", "coordinates": [4.93, 45.271]}, "properties": {"nom": "ST-SORLIN-EN-VA", "altitude": 237, "date_debut_serie(YYYYMM)": 195901, "date_fin_serie(YYYYMM)": 201912}}, {"type": "Feature", "geometry": {"type": "Point", "coordinates": [0.908, 48.838]}, "properties": {"nom": "BRETEUIL", "altitude": 168, "date_debut_serie(YYYYMM)": 196001, "date_fin_serie(YYYYMM)": 202212}}, {"type": "Feature", "geometry": {"type": "Point", "coordinates": [1.182, 48.977]}, "properties": {"nom": "GUICHAINVILLE", "altitude": 147, "date_debut_serie(YYYYMM)": 195301, "date_fin_serie(YYYYMM)": 202212}}, {"type": "Feature", "geometry": {"type": "Point", "coordinates": [1.501, 48.461]}, "properties": {"nom": "CHARTRES", "altitude": 155, "date_debut_serie(YYYYMM)": 195301, "date_fin_serie(YYYYMM)": 202212}}, {"type": "Feature", "geometry": {"type": "Point", "coordinates": [1.621, 48.566]}, "properties": {"nom": "HOUX", "altitude": 107, "date_debut_serie(YYYYMM)": 195301, "date_fin_serie(YYYYMM)": 202212}}, {"type": "Feature", "geometry": {"type": "Point", "coordinates": [1.376, 48.061]}, "properties": {"nom": "CHATEAUDUN", "altitude": 126, "date_debut_serie(YYYYMM)": 195301, "date_fin_serie(YYYYMM)": 202212}}, {"type": "Feature", "geometry": {"type": "Point", "coordinates": [0.959, 48.712]}, "properties": {"nom": "RUEIL", "altitude": 157, "date_debut_serie(YYYYMM)": 195601, "date_fin_serie(YYYYMM)": 202212}}, {"type": "Feature", "geometry": {"type": "Point", "coordinates": [1.903, 48.404]}, "properties": {"nom": "SAINVILLE", "altitude": 149, "date_debut_serie(YYYYMM)": 195401, "date_fin_serie(YYYYMM)": 202212}}, {"type": "Feature", "geometry": {"type": "Point", "coordinates": [-4.607, 48.275]}, "properties": {"nom": "CAMARET", "altitude": 44, "date_debut_serie(YYYYMM)": 195301, "date_fin_serie(YYYYMM)": 201612}}, {"type": "Feature", "geometry": {"type": "Point", "coordinates": [-4.383, 48.45]}, "properties": {"nom": "BREST-GUIPAVAS", "altitude": 94, "date_debut_serie(YYYYMM)": 195101, "date_fin_serie(YYYYMM)": 201612}}, {"type": "Feature", "geometry": {"type": "Point", "coordinates": [-4.012, 48.746]}, "properties": {"nom": "BATZ", "altitude": 32, "date_debut_serie(YYYYMM)": 195101, "date_fin_serie(YYYYMM)": 201612}}, {"type": "Feature", "geometry": {"type": "Point", "coordinates": [-4.439, 48.279]}, "properties": {"nom": "LANVEOC", "altitude": 81, "date_debut_serie(YYYYMM)": 195101, "date_fin_serie(YYYYMM)": 201612}}, {"type": "Feature", "geometry": {"type": "Point", "coordinates": [-5.057, 48.473]}, "properties": {"nom": "OUESSANT-STIFF", "altitude": 64, "date_debut_serie(YYYYMM)": 195201, "date_fin_serie(YYYYMM)": 201612}}, {"type": "Feature", "geometry": {"type": "Point", "coordinates": [-4.732, 48.039]}, "properties": {"nom": "PTE DU RAZ", "altitude": 67, "date_debut_serie(YYYYMM)": 195101, "date_fin_serie(YYYYMM)": 201612}}, {"type": "Feature", "geometry": {"type": "Point", "coordinates": [4.519, 44.113]}, "properties": {"nom": "CAVILLARGUES", "altitude": 131, "date_debut_serie(YYYYMM)": 196101, "date_fin_serie(YYYYMM)": 201912}}, {"type": "Feature", "geometry": {"type": "Point", "coordinates": [4.406, 43.857]}, "properties": {"nom": "NIMES-COURBESSAC", "altitude": 59, "date_debut_serie(YYYYMM)": 195601, "date_fin_serie(YYYYMM)": 201912}}, {"type": "Feature", "geometry": {"type": "Point", "coordinates": [4.08, 44.092]}, "properties": {"nom": "ST CHRISTOL-LES-ALES", "altitude": 129, "date_debut_serie(YYYYMM)": 195601, "date_fin_serie(YYYYMM)": 201712}}, {"type": "Feature", "geometry": {"type": "Point", "coordinates": [3.872, 44.111]}, "properties": {"nom": "ST JEAN DU GARD", "altitude": 196, "date_debut_serie(YYYYMM)": 195701, "date_fin_serie(YYYYMM)": 201912}}, {"type": "Feature", "geometry": {"type": "Point", "coordinates": [4.153, 44.175]}, "properties": {"nom": "SALINDRES", "altitude": 191, "date_debut_serie(YYYYMM)": 195601, "date_fin_serie(YYYYMM)": 201912}}, {"type": "Feature", "geometry": {"type": "Point", "coordinates": [3.582, 44.121]}, "properties": {"nom": "MONT AIGOUAL", "altitude": 1567, "date_debut_serie(YYYYMM)": 195101, "date_fin_serie(YYYYMM)": 201812}}, {"type": "Feature", "geometry": {"type": "Point", "coordinates": [0.6, 42.802]}, "properties": {"nom": "LUCHON", "altitude": 618, "date_debut_serie(YYYYMM)": 195901, "date_fin_serie(YYYYMM)": 201812}}, {"type": "Feature", "geometry": {"type": "Point", "coordinates": [1.379, 43.621]}, "properties": {"nom": "TOULOUSE-BLAGNAC", "altitude": 151, "date_debut_serie(YYYYMM)": 195901, "date_fin_serie(YYYYMM)": 202212}}, {"type": "Feature", "geometry": {"type": "Point", "coordinates": [1.373, 43.54]}, "properties": {"nom": "TOULOUSE-FRANCAZAL", "altitude": 164, "date_debut_serie(YYYYMM)": 195901, "date_fin_serie(YYYYMM)": 202212}}, {"type": "Feature", "geometry": {"type": "Point", "coordinates": [1.321, 43.778]}, "properties": {"nom": "ONDES", "altitude": 109, "date_debut_serie(YYYYMM)": 195901, "date_fin_serie(YYYYMM)": 202212}}, {"type": "Feature", "geometry": {"type": "Point", "coordinates": [0.601, 43.689]}, "properties": {"nom": "AUCH", "altitude": 122, "date_debut_serie(YYYYMM)": 195901, "date_fin_serie(YYYYMM)": 202212}}, {"type": "Feature", "geometry": {"type": "Point", "coordinates": [-0.589, 44.85]}, "properties": {"nom": "BORDEAUX-PAULIN", "altitude": 10, "date_debut_serie(YYYYMM)": 195301, "date_fin_serie(YYYYMM)": 201712}}, {"type": "Feature", "geometry": {"type": "Point", "coordinates": [-1.252, 44.631]}, "properties": {"nom": "CAP-FERRET", "altitude": 8, "date_debut_serie(YYYYMM)": 195301, "date_fin_serie(YYYYMM)": 201712}}, {"type": "Feature", "geometry": {"type": "Point", "coordinates": [-0.691, 44.831]}, "properties": {"nom": "BORDEAUX-MERIGNAC", "altitude": 47, "date_debut_serie(YYYYMM)": 195301, "date_fin_serie(YYYYMM)": 201712}}, {"type": "Feature", "geometry": {"type": "Point", "coordinates": [-1.132, 44.535]}, "properties": {"nom": "CAZAUX", "altitude": 23, "date_debut_serie(YYYYMM)": 195301, "date_fin_serie(YYYYMM)": 201712}}, {"type": "Feature", "geometry": {"type": "Point", "coordinates": [-0.577, 44.79]}, "properties": {"nom": "VILLENAVE D'ORNON-INRA", "altitude": 25, "date_debut_serie(YYYYMM)": 195301, "date_fin_serie(YYYYMM)": 201712}}, {"type": "Feature", "geometry": {"type": "Point", "coordinates": [3.965, 43.576]}, "properties": {"nom": "MONTPELLIER-AEROPORT", "altitude": 1, "date_debut_serie(YYYYMM)": 195101, "date_fin_serie(YYYYMM)": 201912}}, {"type": "Feature", "geometry": {"type": "Point", "coordinates": [3.692, 43.397]}, "properties": {"nom": "SETE", "altitude": 75, "date_debut_serie(YYYYMM)": 195101, "date_fin_serie(YYYYMM)": 201912}}, {"type": "Feature", "geometry": {"type": "Point", "coordinates": [-1.597, 48.327]}, "properties": {"nom": "FEINS  SA", "altitude": 87, "date_debut_serie(YYYYMM)": 196001, "date_fin_serie(YYYYMM)": 201612}}, {"type": "Feature", "geometry": {"type": "Point", "coordinates": [-2.076, 48.585]}, "properties": {"nom": "DINARD", "altitude": 65, "date_debut_serie(YYYYMM)": 195101, "date_fin_serie(YYYYMM)": 201612}}, {"type": "Feature", "geometry": {"type": "Point", "coordinates": [-1.734, 48.069]}, "properties": {"nom": "RENNES-ST JACQUES", "altitude": 36, "date_debut_serie(YYYYMM)": 195501, "date_fin_serie(YYYYMM)": 201612}}, {"type": "Feature", "geometry": {"type": "Point", "coordinates": [1.741, 46.87]}, "properties": {"nom": "CHATEAUROUX  DEOLS", "altitude": 158, "date_debut_serie(YYYYMM)": 195301, "date_fin_serie(YYYYMM)": 202212}}, {"type": "Feature", "geometry": {"type": "Point", "coordinates": [2.067, 46.488]}, "properties": {"nom": "STE-SEVERE", "altitude": 302, "date_debut_serie(YYYYMM)": 195101, "date_fin_serie(YYYYMM)": 201812}}, {"type": "Feature", "geometry": {"type": "Point", "coordinates": [0.977, 47.394]}, "properties": {"nom": "AMBOISE", "altitude": 119, "date_debut_serie(YYYYMM)": 195901, "date_fin_serie(YYYYMM)": 202212}}, {"type": "Feature", "geometry": {"type": "Point", "coordinates": [0.727, 47.445]}, "properties": {"nom": "TOURS", "altitude": 108, "date_debut_serie(YYYYMM)": 195301, "date_fin_serie(YYYYMM)": 202212}}, {"type": "Feature", "geometry": {"type": "Point", "coordinates": [6.168, 45.071]}, "properties": {"nom": "BESSE", "altitude": 1520, "date_debut_serie(YYYYMM)": 195901, "date_fin_serie(YYYYMM)": 202012}}, {"type": "Feature", "geometry": {"type": "Point", "coordinates": [5.638, 44.922]}, "properties": {"nom": "MONESTIER", "altitude": 806, "date_debut_serie(YYYYMM)": 195801, "date_fin_serie(YYYYMM)": 202012}}, {"type": "Feature", "geometry": {"type": "Point", "coordinates": [5.906, 44.784]}, "properties": {"nom": "PELLAFOL-CHANEAUX", "altitude": 947, "date_debut_serie(YYYYMM)": 195901, "date_fin_serie(YYYYMM)": 202012}}, {"type": "Feature", "geometry": {"type": "Point", "coordinates": [5.796, 44.796]}, "properties": {"nom": "ST-BAUDILLE", "altitude": 1040, "date_debut_serie(YYYYMM)": 196101, "date_fin_serie(YYYYMM)": 202012}}, {"type": "Feature", "geometry": {"type": "Point", "coordinates": [5.792, 45.363]}, "properties": {"nom": "GRANDE-CHARTREUSE", "altitude": 945, "date_debut_serie(YYYYMM)": 195901, "date_fin_serie(YYYYMM)": 201812}}, {"type": "Feature", "geometry": {"type": "Point", "coordinates": [5.849, 45.217]}, "properties": {"nom": "GRENOBLE - LVD", "altitude": 220, "date_debut_serie(YYYYMM)": 195101, "date_fin_serie(YYYYMM)": 202012}}, {"type": "Feature", "geometry": {"type": "Point", "coordinates": [5.561, 45.079]}, "properties": {"nom": "VILLARD-DE-LANS", "altitude": 1027, "date_debut_serie(YYYYMM)": 195901, "date_fin_serie(YYYYMM)": 202012}}, {"type": "Feature", "geometry": {"type": "Point", "coordinates": [5.572, 46.868]}, "properties": {"nom": "COLONNE", "altitude": 244, "date_debut_serie(YYYYMM)": 196101, "date_fin_serie(YYYYMM)": 202212}}, {"type": "Feature", "geometry": {"type": "Point", "coordinates": [-1.07, 43.69]}, "properties": {"nom": "DAX", "altitude": 31, "date_debut_serie(YYYYMM)": 195901, "date_fin_serie(YYYYMM)": 202212}}, {"type": "Feature", "geometry": {"type": "Point", "coordinates": [-0.5, 43.91]}, "properties": {"nom": "MONT-DE-MARSAN", "altitude": 59, "date_debut_serie(YYYYMM)": 195901, "date_fin_serie(YYYYMM)": 202212}}, {"type": "Feature", "geometry": {"type": "Point", "coordinates": [-1.299, 43.571]}, "properties": {"nom": "ST M HINX STNA-INRA", "altitude": 37, "date_debut_serie(YYYYMM)": 195901, "date_fin_serie(YYYYMM)": 202212}}, {"type": "Feature", "geometry": {"type": "Point", "coordinates": [-1.426, 43.67]}, "properties": {"nom": "SOORTS-HOSSEGOR", "altitude": 10, "date_debut_serie(YYYYMM)": 195901, "date_fin_serie(YYYYMM)": 202212}}, {"type": "Feature", "geometry": {"type": "Point", "coordinates": [1.688, 47.32]}, "properties": {"nom": "ROMORANTIN", "altitude": 83, "date_debut_serie(YYYYMM)": 195301, "date_fin_serie(YYYYMM)": 202212}}, {"type": "Feature", "geometry": {"type": "Point", "coordinates": [4.294, 45.546]}, "properties": {"nom": "ST ETIENNE-BOUTHEON", "altitude": 395, "date_debut_serie(YYYYMM)": 195101, "date_fin_serie(YYYYMM)": 201512}}, {"type": "Feature", "geometry": {"type": "Point", "coordinates": [4.396, 45.642]}, "properties": {"nom": "CHAZELLES-LYON", "altitude": 632, "date_debut_serie(YYYYMM)": 195701, "date_fin_serie(YYYYMM)": 201512}}, {"type": "Feature", "geometry": {"type": "Point", "coordinates": [4.191, 46.097]}, "properties": {"nom": "NANDAX", "altitude": 374, "date_debut_serie(YYYYMM)": 195401, "date_fin_serie(YYYYMM)": 201512}}, {"type": "Feature", "geometry": {"type": "Point", "coordinates": [4.079, 45.625]}, "properties": {"nom": "SAVIGNEUX", "altitude": 370, "date_debut_serie(YYYYMM)": 195101, "date_fin_serie(YYYYMM)": 201512}}, {"type": "Feature", "geometry": {"type": "Point", "coordinates": [3.895, 45.055]}, "properties": {"nom": "LE PUY-CHADRAC", "altitude": 714, "date_debut_serie(YYYYMM)": 195101, "date_fin_serie(YYYYMM)": 201812}}, {"type": "Feature", "geometry": {"type": "Point", "coordinates": [-1.609, 47.15]}, "properties": {"nom": "NANTES-BOUGUENAIS", "altitude": 26, "date_debut_serie(YYYYMM)": 195501, "date_fin_serie(YYYYMM)": 201612}}, {"type": "Feature", "geometry": {"type": "Point", "coordinates": [-2.155, 47.314]}, "properties": {"nom": "ST NAZAIRE-MONTOIR", "altitude": 3, "date_debut_serie(YYYYMM)": 195801, "date_fin_serie(YYYYMM)": 201612}}, {"type": "Feature", "geometry": {"type": "Point", "coordinates": [-1.514, 47.425]}, "properties": {"nom": "NORT-SUR-ERDRE", "altitude": 13, "date_debut_serie(YYYYMM)": 195601, "date_fin_serie(YYYYMM)": 201612}}, {"type": "Feature", "geometry": {"type": "Point", "coordinates": [1.778, 47.991]}, "properties": {"nom": "ORLEANS", "altitude": 123, "date_debut_serie(YYYYMM)": 195301, "date_fin_serie(YYYYMM)": 202212}}, {"type": "Feature", "geometry": {"type": "Point", "coordinates": [2.26, 48.025]}, "properties": {"nom": "CHAMBON-LA-F.", "altitude": 143, "date_debut_serie(YYYYMM)": 195301, "date_fin_serie(YYYYMM)": 202212}}, {"type": "Feature", "geometry": {"type": "Point", "coordinates": [2.306, 47.808]}, "properties": {"nom": "ST-BENOIT/LOIRE", "altitude": 112, "date_debut_serie(YYYYMM)": 195801, "date_fin_serie(YYYYMM)": 202212}}, {"type": "Feature", "geometry": {"type": "Point", "coordinates": [2.366, 47.694]}, "properties": {"nom": "VILLEMURLIN", "altitude": 144, "date_debut_serie(YYYYMM)": 195901, "date_fin_serie(YYYYMM)": 202212}}, {"type": "Feature", "geometry": {"type": "Point", "coordinates": [1.397, 44.745]}, "properties": {"nom": "GOURDON", "altitude": 260, "date_debut_serie(YYYYMM)": 195901, "date_fin_serie(YYYYMM)": 202212}}, {"type": "Feature", "geometry": {"type": "Point", "coordinates": [0.595, 44.172]}, "properties": {"nom": "AGEN-LA GARENNE", "altitude": 58, "date_debut_serie(YYYYMM)": 195901, "date_fin_serie(YYYYMM)": 202212}}, {"type": "Feature", "geometry": {"type": "Point", "coordinates": [-0.614, 47.479]}, "properties": {"nom": "BEAUCOUZE", "altitude": 50, "date_debut_serie(YYYYMM)": 195501, "date_fin_serie(YYYYMM)": 201612}}, {"type": "Feature", "geometry": {"type": "Point", "coordinates": [-0.938, 47.152]}, "properties": {"nom": "BEGROLLES", "altitude": 100, "date_debut_serie(YYYYMM)": 195101, "date_fin_serie(YYYYMM)": 202112}}, {"type": "Feature", "geometry": {"type": "Point", "coordinates": [-0.74, 47.151]}, "properties": {"nom": "ST GEORGES GARD", "altitude": 203, "date_debut_serie(YYYYMM)": 195101, "date_fin_serie(YYYYMM)": 202112}}, {"type": "Feature", "geometry": {"type": "Point", "coordinates": [-0.074, 47.252]}, "properties": {"nom": "SAUMUR", "altitude": 69, "date_debut_serie(YYYYMM)": 195101, "date_fin_serie(YYYYMM)": 202112}}, {"type": "Feature", "geometry": {"type": "Point", "coordinates": [-1.94, 49.725]}, "properties": {"nom": "PTE DE LA HAGUE", "altitude": 6, "date_debut_serie(YYYYMM)": 195101, "date_fin_serie(YYYYMM)": 201612}}, {"type": "Feature", "geometry": {"type": "Point", "coordinates": [-1.573, 48.862]}, "properties": {"nom": "LONGUEVILLE", "altitude": 5, "date_debut_serie(YYYYMM)": 195101, "date_fin_serie(YYYYMM)": 201612}}, {"type": "Feature", "geometry": {"type": "Point", "coordinates": [4.208, 48.734]}, "properties": {"nom": "SOMMESOUS", "altitude": 167, "date_debut_serie(YYYYMM)": 195301, "date_fin_serie(YYYYMM)": 201512}}, {"type": "Feature", "geometry": {"type": "Point", "coordinates": [5.46, 47.692]}, "properties": {"nom": "COUBLANC", "altitude": 258, "date_debut_serie(YYYYMM)": 195901, "date_fin_serie(YYYYMM)": 202212}}, {"type": "Feature", "geometry": {"type": "Point", "coordinates": [5.615, 47.784]}, "properties": {"nom": "FAYL-BILLOT_SAPC", "altitude": 347, "date_debut_serie(YYYYMM)": 195901, "date_fin_serie(YYYYMM)": 202212}}, {"type": "Feature", "geometry": {"type": "Point", "coordinates": [5.338, 47.844]}, "properties": {"nom": "LANGRES", "altitude": 466, "date_debut_serie(YYYYMM)": 195901, "date_fin_serie(YYYYMM)": 202212}}, {"type": "Feature", "geometry": {"type": "Point", "coordinates": [4.904, 48.631]}, "properties": {"nom": "ST-DIZIER", "altitude": 139, "date_debut_serie(YYYYMM)": 195901, "date_fin_serie(YYYYMM)": 201512}}, {"type": "Feature", "geometry": {"type": "Point", "coordinates": [5.046, 48.092]}, "properties": {"nom": "CHAUMONT-SEMOUTIERS", "altitude": 294, "date_debut_serie(YYYYMM)": 195901, "date_fin_serie(YYYYMM)": 201512}}, {"type": "Feature", "geometry": {"type": "Point", "coordinates": [-0.388, 48.168]}, "properties": {"nom": "EVRON", "altitude": 107, "date_debut_serie(YYYYMM)": 195501, "date_fin_serie(YYYYMM)": 201612}}, {"type": "Feature", "geometry": {"type": "Point", "coordinates": [-0.64, 48.311]}, "properties": {"nom": "MAYENNE", "altitude": 138, "date_debut_serie(YYYYMM)": 195801, "date_fin_serie(YYYYMM)": 201612}}, {"type": "Feature", "geometry": {"type": "Point", "coordinates": [-0.183, 48.452]}, "properties": {"nom": "PRE-EN-PAIL_SAPC", "altitude": 277, "date_debut_serie(YYYYMM)": 195501, "date_fin_serie(YYYYMM)": 201612}}, {"type": "Feature", "geometry": {"type": "Point", "coordinates": [6.896, 48.498]}, "properties": {"nom": "BADONVILLER", "altitude": 336, "date_debut_serie(YYYYMM)": 195901, "date_fin_serie(YYYYMM)": 201512}}, {"type": "Feature", "geometry": {"type": "Point", "coordinates": [5.96, 48.581]}, "properties": {"nom": "NANCY-OCHEY", "altitude": 336, "date_debut_serie(YYYYMM)": 195901, "date_fin_serie(YYYYMM)": 201512}}, {"type": "Feature", "geometry": {"type": "Point", "coordinates": [6.222, 48.688]}, "properties": {"nom": "NANCY-ESSEY", "altitude": 212, "date_debut_serie(YYYYMM)": 195901, "date_fin_serie(YYYYMM)": 201512}}, {"type": "Feature", "geometry": {"type": "Point", "coordinates": [5.404, 48.75]}, "properties": {"nom": "ERNEVILLE AUX BOIS_SAPC", "altitude": 313, "date_debut_serie(YYYYMM)": 195901, "date_fin_serie(YYYYMM)": 201512}}, {"type": "Feature", "geometry": {"type": "Point", "coordinates": [-3.218, 47.294]}, "properties": {"nom": "BELLE ILE-LE TALUT", "altitude": 34, "date_debut_serie(YYYYMM)": 195101, "date_fin_serie(YYYYMM)": 201612}}, {"type": "Feature", "geometry": {"type": "Point", "coordinates": [-3.502, 47.652]}, "properties": {"nom": "ILE DE GROIX", "altitude": 41, "date_debut_serie(YYYYMM)": 195101, "date_fin_serie(YYYYMM)": 201612}}, {"type": "Feature", "geometry": {"type": "Point", "coordinates": [-2.398, 47.951]}, "properties": {"nom": "PLOERMEL", "altitude": 65, "date_debut_serie(YYYYMM)": 195501, "date_fin_serie(YYYYMM)": 201612}}, {"type": "Feature", "geometry": {"type": "Point", "coordinates": [-3.436, 47.763]}, "properties": {"nom": "LORIENT-LANN BIHOUE", "altitude": 45, "date_debut_serie(YYYYMM)": 195201, "date_fin_serie(YYYYMM)": 201612}}, {"type": "Feature", "geometry": {"type": "Point", "coordinates": [6.125, 49.07]}, "properties": {"nom": "METZ-FRESCATY", "altitude": 192, "date_debut_serie(YYYYMM)": 195901, "date_fin_serie(YYYYMM)": 201512}}, {"type": "Feature", "geometry": {"type": "Point", "coordinates": [7.306, 48.767]}, "properties": {"nom": "PHALSBOURG_SAPC", "altitude": 377, "date_debut_serie(YYYYMM)": 195101, "date_fin_serie(YYYYMM)": 202212}}, {"type": "Feature", "geometry": {"type": "Point", "coordinates": [3.934, 47.07]}, "properties": {"nom": "CHATEAU CHINON", "altitude": 598, "date_debut_serie(YYYYMM)": 195101, "date_fin_serie(YYYYMM)": 202212}}, {"type": "Feature", "geometry": {"type": "Point", "coordinates": [3.113, 46.998]}, "properties": {"nom": "NEVERS-MARZY", "altitude": 175, "date_debut_serie(YYYYMM)": 195101, "date_fin_serie(YYYYMM)": 202212}}, {"type": "Feature", "geometry": {"type": "Point", "coordinates": [2.34, 51.056]}, "properties": {"nom": "DUNKERQUE", "altitude": 11, "date_debut_serie(YYYYMM)": 195101, "date_fin_serie(YYYYMM)": 202212}}, {"type": "Feature", "geometry": {"type": "Point", "coordinates": [3.098, 50.57]}, "properties": {"nom": "LILLE-LESQUIN", "altitude": 47, "date_debut_serie(YYYYMM)": 195101, "date_fin_serie(YYYYMM)": 202212}}, {"type": "Feature", "geometry": {"type": "Point", "coordinates": [2.439, 49.361]}, "properties": {"nom": "BREUIL-LE-VERT", "altitude": 52, "date_debut_serie(YYYYMM)": 195501, "date_fin_serie(YYYYMM)": 202212}}, {"type": "Feature", "geometry": {"type": "Point", "coordinates": [2.804, 49.432]}, "properties": {"nom": "MARGNY-LES-COMPIEGNE", "altitude": 92, "date_debut_serie(YYYYMM)": 195901, "date_fin_serie(YYYYMM)": 202212}}, {"type": "Feature", "geometry": {"type": "Point", "coordinates": [2.127, 49.447]}, "properties": {"nom": "BEAUVAIS-TILLE", "altitude": 89, "date_debut_serie(YYYYMM)": 195301, "date_fin_serie(YYYYMM)": 201512}}, {"type": "Feature", "geometry": {"type": "Point", "coordinates": [0.11, 48.446]}, "properties": {"nom": "ALENCON", "altitude": 143, "date_debut_serie(YYYYMM)": 195501, "date_fin_serie(YYYYMM)": 201612}}, {"type": "Feature", "geometry": {"type": "Point", "coordinates": [1.6, 50.733]}, "properties": {"nom": "BOULOGNE-SEM", "altitude": 73, "date_debut_serie(YYYYMM)": 195101, "date_fin_serie(YYYYMM)": 202212}}, {"type": "Feature", "geometry": {"type": "Point", "coordinates": [3.164, 50.226]}, "properties": {"nom": "CAMBRAI-EPINOY", "altitude": 76, "date_debut_serie(YYYYMM)": 195401, "date_fin_serie(YYYYMM)": 202212}}, {"type": "Feature", "geometry": {"type": "Point", "coordinates": [1.623, 50.515]}, "properties": {"nom": "LE-TOUQUET", "altitude": 5, "date_debut_serie(YYYYMM)": 195601, "date_fin_serie(YYYYMM)": 202212}}, {"type": "Feature", "geometry": {"type": "Point", "coordinates": [3.743, 45.517]}, "properties": {"nom": "AMBERT", "altitude": 555, "date_debut_serie(YYYYMM)": 195101, "date_fin_serie(YYYYMM)": 201812}}, {"type": "Feature", "geometry": {"type": "Point", "coordinates": [3.149, 45.787]}, "properties": {"nom": "CLERMONT-FD", "altitude": 331, "date_debut_serie(YYYYMM)": 195101, "date_fin_serie(YYYYMM)": 201812}}, {"type": "Feature", "geometry": {"type": "Point", "coordinates": [2.91, 46.105]}, "properties": {"nom": "MENAT", "altitude": 410, "date_debut_serie(YYYYMM)": 195101, "date_fin_serie(YYYYMM)": 201812}}, {"type": "Feature", "geometry": {"type": "Point", "coordinates": [2.598, 45.545]}, "properties": {"nom": "TAUVES", "altitude": 852, "date_debut_serie(YYYYMM)": 195901, "date_fin_serie(YYYYMM)": 201812}}, {"type": "Feature", "geometry": {"type": "Point", "coordinates": [-1.534, 43.469]}, "properties": {"nom": "BIARRITZ-PAYS-BASQUE", "altitude": 71, "date_debut_serie(YYYYMM)": 195601, "date_fin_serie(YYYYMM)": 201812}}, {"type": "Feature", "geometry": {"type": "Point", "coordinates": [-1.687, 43.395]}, "properties": {"nom": "SOCOA", "altitude": 21, "date_debut_serie(YYYYMM)": 195501, "date_fin_serie(YYYYMM)": 201812}}, {"type": "Feature", "geometry": {"type": "Point", "coordinates": [-0.429, 42.984]}, "properties": {"nom": "LARUNS-HOURAT", "altitude": 522, "date_debut_serie(YYYYMM)": 195501, "date_fin_serie(YYYYMM)": 201812}}, {"type": "Feature", "geometry": {"type": "Point", "coordinates": [-0.416, 43.385]}, "properties": {"nom": "PAU-UZEIN", "altitude": 183, "date_debut_serie(YYYYMM)": 195501, "date_fin_serie(YYYYMM)": 201812}}, {"type": "Feature", "geometry": {"type": "Point", "coordinates": [0.0, 43.188]}, "properties": {"nom": "TARBES-LOURDES-PYRENEES", "altitude": 360, "date_debut_serie(YYYYMM)": 195501, "date_fin_serie(YYYYMM)": 201812}}, {"type": "Feature", "geometry": {"type": "Point", "coordinates": [2.873, 42.737]}, "properties": {"nom": "PERPIGNAN", "altitude": 42, "date_debut_serie(YYYYMM)": 195101, "date_fin_serie(YYYYMM)": 201912}}, {"type": "Feature", "geometry": {"type": "Point", "coordinates": [3.135, 42.517]}, "properties": {"nom": "CAP BEAR", "altitude": 82, "date_debut_serie(YYYYMM)": 195101, "date_fin_serie(YYYYMM)": 201912}}, {"type": "Feature", "geometry": {"type": "Point", "coordinates": [7.64, 48.55]}, "properties": {"nom": "STRASBOURG-ENTZHEIM", "altitude": 150, "date_debut_serie(YYYYMM)": 195101, "date_fin_serie(YYYYMM)": 202212}}, {"type": "Feature", "geometry": {"type": "Point", "coordinates": [7.769, 48.582]}, "properties": {"nom": "STRASBOURG - BOTANIQUE", "altitude": 139, "date_debut_serie(YYYYMM)": 195101, "date_fin_serie(YYYYMM)": 202212}}, {"type": "Feature", "geometry": {"type": "Point", "coordinates": [7.582, 48.884]}, "properties": {"nom": "UHRWILLER_SAPC", "altitude": 217, "date_debut_serie(YYYYMM)": 195101, "date_fin_serie(YYYYMM)": 202212}}, {"type": "Feature", "geometry": {"type": "Point", "coordinates": [7.33, 48.063]}, "properties": {"nom": "COLMAR-INRA", "altitude": 202, "date_debut_serie(YYYYMM)": 195101, "date_fin_serie(YYYYMM)": 202212}}, {"type": "Feature", "geometry": {"type": "Point", "coordinates": [7.408, 47.929]}, "properties": {"nom": "COLMAR-MEYENHEIM", "altitude": 207, "date_debut_serie(YYYYMM)": 195701, "date_fin_serie(YYYYMM)": 202212}}, {"type": "Feature", "geometry": {"type": "Point", "coordinates": [7.289, 47.75]}, "properties": {"nom": "MULHOUSE", "altitude": 245, "date_debut_serie(YYYYMM)": 195501, "date_fin_serie(YYYYMM)": 202212}}, {"type": "Feature", "geometry": {"type": "Point", "coordinates": [7.51, 47.614]}, "properties": {"nom": "BALE-MULHOUSE", "altitude": 263, "date_debut_serie(YYYYMM)": 195101, "date_fin_serie(YYYYMM)": 202212}}, {"type": "Feature", "geometry": {"type": "Point", "coordinates": [4.949, 45.721]}, "properties": {"nom": "LYON-BRON", "altitude": 202, "date_debut_serie(YYYYMM)": 195101, "date_fin_serie(YYYYMM)": 201512}}, {"type": "Feature", "geometry": {"type": "Point", "coordinates": [4.674, 45.615]}, "properties": {"nom": "MORNANT", "altitude": 343, "date_debut_serie(YYYYMM)": 195101, "date_fin_serie(YYYYMM)": 201512}}, {"type": "Feature", "geometry": {"type": "Point", "coordinates": [4.566, 46.164]}, "properties": {"nom": "ST-DIDIER-BEAUJ", "altitude": 345, "date_debut_serie(YYYYMM)": 195101, "date_fin_serie(YYYYMM)": 201512}}, {"type": "Feature", "geometry": {"type": "Point", "coordinates": [4.782, 45.695]}, "properties": {"nom": "ST-GENIS-LAVAL", "altitude": 290, "date_debut_serie(YYYYMM)": 195101, "date_fin_serie(YYYYMM)": 201512}}, {"type": "Feature", "geometry": {"type": "Point", "coordinates": [4.738, 45.987]}, "properties": {"nom": "VILLEFRANCHE", "altitude": 174, "date_debut_serie(YYYYMM)": 195901, "date_fin_serie(YYYYMM)": 201512}}, {"type": "Feature", "geometry": {"type": "Point", "coordinates": [6.338, 47.915]}, "properties": {"nom": "AILLEVILLERS", "altitude": 275, "date_debut_serie(YYYYMM)": 195901, "date_fin_serie(YYYYMM)": 202212}}, {"type": "Feature", "geometry": {"type": "Point", "coordinates": [5.843, 47.423]}, "properties": {"nom": "BUCEY-LES-GY", "altitude": 215, "date_debut_serie(YYYYMM)": 196101, "date_fin_serie(YYYYMM)": 202212}}, {"type": "Feature", "geometry": {"type": "Point", "coordinates": [5.892, 47.709]}, "properties": {"nom": "COMBEAUFONTAINE", "altitude": 252, "date_debut_serie(YYYYMM)": 195901, "date_fin_serie(YYYYMM)": 202212}}, {"type": "Feature", "geometry": {"type": "Point", "coordinates": [6.364, 47.787]}, "properties": {"nom": "LUXEUIL", "altitude": 271, "date_debut_serie(YYYYMM)": 195901, "date_fin_serie(YYYYMM)": 202212}}, {"type": "Feature", "geometry": {"type": "Point", "coordinates": [4.794, 46.295]}, "properties": {"nom": "MACON", "altitude": 219, "date_debut_serie(YYYYMM)": 195101, "date_fin_serie(YYYYMM)": 201512}}, {"type": "Feature", "geometry": {"type": "Point", "coordinates": [4.477, 46.628]}, "properties": {"nom": "MT-ST-VINCENT", "altitude": 601, "date_debut_serie(YYYYMM)": 195101, "date_fin_serie(YYYYMM)": 201512}}, {"type": "Feature", "geometry": {"type": "Point", "coordinates": [4.017, 46.408]}, "properties": {"nom": "ST YAN", "altitude": 242, "date_debut_serie(YYYYMM)": 195401, "date_fin_serie(YYYYMM)": 202212}}, {"type": "Feature", "geometry": {"type": "Point", "coordinates": [0.71, 48.18]}, "properties": {"nom": "CORMES", "altitude": 122, "date_debut_serie(YYYYMM)": 195301, "date_fin_serie(YYYYMM)": 202212}}, {"type": "Feature", "geometry": {"type": "Point", "coordinates": [0.194, 47.946]}, "properties": {"nom": "LE MANS", "altitude": 51, "date_debut_serie(YYYYMM)": 195501, "date_fin_serie(YYYYMM)": 201612}}, {"type": "Feature", "geometry": {"type": "Point", "coordinates": [0.023, 47.659]}, "properties": {"nom": "THOREE LES PINS", "altitude": 78, "date_debut_serie(YYYYMM)": 196101, "date_fin_serie(YYYYMM)": 201612}}, {"type": "Feature", "geometry": {"type": "Point", "coordinates": [6.717, 45.214]}, "properties": {"nom": "AVRIEUX", "altitude": 1104, "date_debut_serie(YYYYMM)": 195101, "date_fin_serie(YYYYMM)": 202012}}, {"type": "Feature", "geometry": {"type": "Point", "coordinates": [6.569, 45.691]}, "properties": {"nom": "BEAUFORT-SUR-DORON", "altitude": 1036, "date_debut_serie(YYYYMM)": 195101, "date_fin_serie(YYYYMM)": 202012}}, {"type": "Feature", "geometry": {"type": "Point", "coordinates": [6.763, 45.613]}, "properties": {"nom": "BOURG ST MAURICE", "altitude": 865, "date_debut_serie(YYYYMM)": 195101, "date_fin_serie(YYYYMM)": 202012}}, {"type": "Feature", "geometry": {"type": "Point", "coordinates": [5.97, 45.565]}, "properties": {"nom": "CHALLES LES EAUX", "altitude": 298, "date_debut_serie(YYYYMM)": 195101, "date_fin_serie(YYYYMM)": 202012}}, {"type": "Feature", "geometry": {"type": "Point", "coordinates": [6.108, 45.715]}, "properties": {"nom": "LESCHERAINES", "altitude": 591, "date_debut_serie(YYYYMM)": 195901, "date_fin_serie(YYYYMM)": 202012}}, {"type": "Feature", "geometry": {"type": "Point", "coordinates": [6.757, 45.544]}, "properties": {"nom": "PEISEY NANCROIX", "altitude": 1350, "date_debut_serie(YYYYMM)": 195101, "date_fin_serie(YYYYMM)": 202012}}, {"type": "Feature", "geometry": {"type": "Point", "coordinates": [6.815, 45.275]}, "properties": {"nom": "TERMIGNON-CLIM", "altitude": 1280, "date_debut_serie(YYYYMM)": 195101, "date_fin_serie(YYYYMM)": 202012}}, {"type": "Feature", "geometry": {"type": "Point", "coordinates": [6.433, 45.173]}, "properties": {"nom": "VALLOIRE FOREST", "altitude": 1460, "date_debut_serie(YYYYMM)": 195101, "date_fin_serie(YYYYMM)": 202012}}, {"type": "Feature", "geometry": {"type": "Point", "coordinates": [6.431, 46.08]}, "properties": {"nom": "AYZE", "altitude": 449, "date_debut_serie(YYYYMM)": 195801, "date_fin_serie(YYYYMM)": 202012}}, {"type": "Feature", "geometry": {"type": "Point", "coordinates": [6.34, 46.129]}, "properties": {"nom": "CONTAMINE-SUR- ARVE", "altitude": 452, "date_debut_serie(YYYYMM)": 195801, "date_fin_serie(YYYYMM)": 202012}}, {"type": "Feature", "geometry": {"type": "Point", "coordinates": [6.108, 45.911]}, "properties": {"nom": "CRAN-GEVRIER", "altitude": 426, "date_debut_serie(YYYYMM)": 195601, "date_fin_serie(YYYYMM)": 202012}}, {"type": "Feature", "geometry": {"type": "Point", "coordinates": [6.323, 45.878]}, "properties": {"nom": "THONES", "altitude": 630, "date_debut_serie(YYYYMM)": 195101, "date_fin_serie(YYYYMM)": 202012}}, {"type": "Feature", "geometry": {"type": "Point", "coordinates": [6.455, 46.367]}, "properties": {"nom": "THONON-INRA", "altitude": 376, "date_debut_serie(YYYYMM)": 195101, "date_fin_serie(YYYYMM)": 202012}}, {"type": "Feature", "geometry": {"type": "Point", "coordinates": [2.338, 48.822]}, "properties": {"nom": "PARIS-MONTSOURIS", "altitude": 75, "date_debut_serie(YYYYMM)": 195301, "date_fin_serie(YYYYMM)": 202212}}, {"type": "Feature", "geometry": {"type": "Point", "coordinates": [1.178, 49.39]}, "properties": {"nom": "ROUEN-BOOS", "altitude": 156, "date_debut_serie(YYYYMM)": 195101, "date_fin_serie(YYYYMM)": 202212}}, {"type": "Feature", "geometry": {"type": "Point", "coordinates": [1.09, 49.933]}, "properties": {"nom": "DIEPPE", "altitude": 40, "date_debut_serie(YYYYMM)": 195101, "date_fin_serie(YYYYMM)": 202212}}, {"type": "Feature", "geometry": {"type": "Point", "coordinates": [0.369, 49.767]}, "properties": {"nom": "FECAMP", "altitude": 104, "date_debut_serie(YYYYMM)": 195101, "date_fin_serie(YYYYMM)": 202212}}, {"type": "Feature", "geometry": {"type": "Point", "coordinates": [0.071, 49.509]}, "properties": {"nom": "CAP-DE-LA-HEVE", "altitude": 100, "date_debut_serie(YYYYMM)": 195101, "date_fin_serie(YYYYMM)": 202212}}, {"type": "Feature", "geometry": {"type": "Point", "coordinates": [2.679, 48.406]}, "properties": {"nom": "FONTAINEBLEAU_SAPC", "altitude": 84, "date_debut_serie(YYYYMM)": 195301, "date_fin_serie(YYYYMM)": 202212}}, {"type": "Feature", "geometry": {"type": "Point", "coordinates": [3.008, 48.595]}, "properties": {"nom": "NANGIS", "altitude": 128, "date_debut_serie(YYYYMM)": 195301, "date_fin_serie(YYYYMM)": 202212}}, {"type": "Feature", "geometry": {"type": "Point", "coordinates": [2.68, 48.61]}, "properties": {"nom": "MELUN", "altitude": 91, "date_debut_serie(YYYYMM)": 195301, "date_fin_serie(YYYYMM)": 202212}}, {"type": "Feature", "geometry": {"type": "Point", "coordinates": [2.715, 48.27]}, "properties": {"nom": "NEMOURS", "altitude": 73, "date_debut_serie(YYYYMM)": 195901, "date_fin_serie(YYYYMM)": 202212}}, {"type": "Feature", "geometry": {"type": "Point", "coordinates": [2.01, 48.774]}, "properties": {"nom": "TRAPPES", "altitude": 167, "date_debut_serie(YYYYMM)": 195301, "date_fin_serie(YYYYMM)": 202212}}, {"type": "Feature", "geometry": {"type": "Point", "coordinates": [2.204, 48.773]}, "properties": {"nom": "VILLACOUBLAY", "altitude": 174, "date_debut_serie(YYYYMM)": 195301, "date_fin_serie(YYYYMM)": 202212}}, {"type": "Feature", "geometry": {"type": "Point", "coordinates": [-0.064, 46.494]}, "properties": {"nom": "MENIGOUTE_SAPC", "altitude": 138, "date_debut_serie(YYYYMM)": 195101, "date_fin_serie(YYYYMM)": 202112}}, {"type": "Feature", "geometry": {"type": "Point", "coordinates": [-0.4, 46.316]}, "properties": {"nom": "NIORT", "altitude": 57, "date_debut_serie(YYYYMM)": 195901, "date_fin_serie(YYYYMM)": 202112}}, {"type": "Feature", "geometry": {"type": "Point", "coordinates": [-0.669, 46.231]}, "properties": {"nom": "PRIN-DEYRANCON_SAPC", "altitude": 8, "date_debut_serie(YYYYMM)": 195501, "date_fin_serie(YYYYMM)": 202112}}, {"type": "Feature", "geometry": {"type": "Point", "coordinates": [1.834, 50.136]}, "properties": {"nom": "ABBEVILLE", "altitude": 69, "date_debut_serie(YYYYMM)": 195101, "date_fin_serie(YYYYMM)": 202212}}, {"type": "Feature", "geometry": {"type": "Point", "coordinates": [2.383, 49.872]}, "properties": {"nom": "AMIENS-GLISY", "altitude": 60, "date_debut_serie(YYYYMM)": 195301, "date_fin_serie(YYYYMM)": 202212}}, {"type": "Feature", "geometry": {"type": "Point", "coordinates": [2.14, 43.491]}, "properties": {"nom": "DOURGNE", "altitude": 234, "date_debut_serie(YYYYMM)": 195901, "date_fin_serie(YYYYMM)": 202212}}, {"type": "Feature", "geometry": {"type": "Point", "coordinates": [2.704, 43.708]}, "properties": {"nom": "LACAUNE", "altitude": 811, "date_debut_serie(YYYYMM)": 196101, "date_fin_serie(YYYYMM)": 201812}}, {"type": "Feature", "geometry": {"type": "Point", "coordinates": [1.377, 44.028]}, "properties": {"nom": "MONTAUBAN", "altitude": 106, "date_debut_serie(YYYYMM)": 195901, "date_fin_serie(YYYYMM)": 202212}}, {"type": "Feature", "geometry": {"type": "Point", "coordinates": [1.068, 43.932]}, "properties": {"nom": "SERIGNAC", "altitude": 151, "date_debut_serie(YYYYMM)": 195901, "date_fin_serie(YYYYMM)": 201812}}, {"type": "Feature", "geometry": {"type": "Point", "coordinates": [6.386, 43.383]}, "properties": {"nom": "LE LUC", "altitude": 80, "date_debut_serie(YYYYMM)": 195901, "date_fin_serie(YYYYMM)": 201912}}, {"type": "Feature", "geometry": {"type": "Point", "coordinates": [6.453, 43.526]}, "properties": {"nom": "DRAGUIGNAN_SAPC", "altitude": 173, "date_debut_serie(YYYYMM)": 195901, "date_fin_serie(YYYYMM)": 201912}}, {"type": "Feature", "geometry": {"type": "Point", "coordinates": [6.738, 43.424]}, "properties": {"nom": "FREJUS", "altitude": 7, "date_debut_serie(YYYYMM)": 195901, "date_fin_serie(YYYYMM)": 201912}}, {"type": "Feature", "geometry": {"type": "Point", "coordinates": [6.146, 43.094]}, "properties": {"nom": "HYERES", "altitude": 2, "date_debut_serie(YYYYMM)": 195901, "date_fin_serie(YYYYMM)": 201912}}, {"type": "Feature", "geometry": {"type": "Point", "coordinates": [5.963, 43.594]}, "properties": {"nom": "VARAGES", "altitude": 348, "date_debut_serie(YYYYMM)": 195901, "date_fin_serie(YYYYMM)": 201912}}, {"type": "Feature", "geometry": {"type": "Point", "coordinates": [5.414, 43.881]}, "properties": {"nom": "APT-VITON", "altitude": 242, "date_debut_serie(YYYYMM)": 195601, "date_fin_serie(YYYYMM)": 201912}}, {"type": "Feature", "geometry": {"type": "Point", "coordinates": [4.877, 43.917]}, "properties": {"nom": "AVIGNON-INRA", "altitude": 32, "date_debut_serie(YYYYMM)": 195801, "date_fin_serie(YYYYMM)": 201912}}, {"type": "Feature", "geometry": {"type": "Point", "coordinates": [4.903, 43.911]}, "properties": {"nom": "AVIGNON", "altitude": 34, "date_debut_serie(YYYYMM)": 195901, "date_fin_serie(YYYYMM)": 201912}}, {"type": "Feature", "geometry": {"type": "Point", "coordinates": [5.165, 43.884]}, "properties": {"nom": "CABRIERES D'AVIGNON", "altitude": 142, "date_debut_serie(YYYYMM)": 195601, "date_fin_serie(YYYYMM)": 201912}}, {"type": "Feature", "geometry": {"type": "Point", "coordinates": [4.861, 44.145]}, "properties": {"nom": "ORANGE", "altitude": 57, "date_debut_serie(YYYYMM)": 195901, "date_fin_serie(YYYYMM)": 201912}}, {"type": "Feature", "geometry": {"type": "Point", "coordinates": [-1.048, 46.693]}, "properties": {"nom": "CHANTONNAY", "altitude": 93, "date_debut_serie(YYYYMM)": 195401, "date_fin_serie(YYYYMM)": 202112}}, {"type": "Feature", "geometry": {"type": "Point", "coordinates": [-2.33, 46.694]}, "properties": {"nom": "L ILE D YEU", "altitude": 32, "date_debut_serie(YYYYMM)": 195101, "date_fin_serie(YYYYMM)": 201612}}, {"type": "Feature", "geometry": {"type": "Point", "coordinates": [-1.121, 46.44]}, "properties": {"nom": "SAINTE GEMME LA PLAINE_SAPC", "altitude": 3, "date_debut_serie(YYYYMM)": 195901, "date_fin_serie(YYYYMM)": 202112}}, {"type": "Feature", "geometry": {"type": "Point", "coordinates": [0.314, 46.594]}, "properties": {"nom": "POITIERS-BIARD", "altitude": 125, "date_debut_serie(YYYYMM)": 195101, "date_fin_serie(YYYYMM)": 202112}}, {"type": "Feature", "geometry": {"type": "Point", "coordinates": [0.67, 46.243]}, "properties": {"nom": "LE-VIGEANT", "altitude": 117, "date_debut_serie(YYYYMM)": 195301, "date_fin_serie(YYYYMM)": 201712}}, {"type": "Feature", "geometry": {"type": "Point", "coordinates": [1.181, 46.005]}, "properties": {"nom": "NANTIAT", "altitude": 335, "date_debut_serie(YYYYMM)": 195901, "date_fin_serie(YYYYMM)": 201812}}, {"type": "Feature", "geometry": {"type": "Point", "coordinates": [1.189, 45.681]}, "properties": {"nom": "NEXON", "altitude": 336, "date_debut_serie(YYYYMM)": 196101, "date_fin_serie(YYYYMM)": 201812}}, {"type": "Feature", "geometry": {"type": "Point", "coordinates": [1.343, 45.878]}, "properties": {"nom": "LE PALAIS SUR VIENNE", "altitude": 286, "date_debut_serie(YYYYMM)": 195101, "date_fin_serie(YYYYMM)": 201812}}, {"type": "Feature", "geometry": {"type": "Point", "coordinates": [6.452, 48.211]}, "properties": {"nom": "EPINAL", "altitude": 317, "date_debut_serie(YYYYMM)": 196001, "date_fin_serie(YYYYMM)": 201512}}, {"type": "Feature", "geometry": {"type": "Point", "coordinates": [3.55, 47.825]}, "properties": {"nom": "AUXERRE-PERRIGNY", "altitude": 152, "date_debut_serie(YYYYMM)": 195101, "date_fin_serie(YYYYMM)": 202212}}, {"type": "Feature", "geometry": {"type": "Point", "coordinates": [4.059, 47.488]}, "properties": {"nom": "ST ANDRE", "altitude": 300, "date_debut_serie(YYYYMM)": 195301, "date_fin_serie(YYYYMM)": 202212}}, {"type": "Feature", "geometry": {"type": "Point", "coordinates": [3.289, 48.168]}, "properties": {"nom": "SENS", "altitude": 70, "date_debut_serie(YYYYMM)": 195601, "date_fin_serie(YYYYMM)": 202212}}, {"type": "Feature", "geometry": {"type": "Point", "coordinates": [6.837, 47.592]}, "properties": {"nom": "DORANS", "altitude": 401, "date_debut_serie(YYYYMM)": 195901, "date_fin_serie(YYYYMM)": 202212}}, {"type": "Feature", "geometry": {"type": "Point", "coordinates": [2.397, 48.718]}, "properties": {"nom": "ORLY", "altitude": 86, "date_debut_serie(YYYYMM)": 195301, "date_fin_serie(YYYYMM)": 202212}}, {"type": "Feature", "geometry": {"type": "Point", "coordinates": [2.326, 48.601]}, "properties": {"nom": "BRETIGNY_SAPC", "altitude": 78, "date_debut_serie(YYYYMM)": 195301, "date_fin_serie(YYYYMM)": 202212}}, {"type": "Feature", "geometry": {"type": "Point", "coordinates": [2.374, 48.422]}, "properties": {"nom": "COURDIMANCHE", "altitude": 71, "date_debut_serie(YYYYMM)": 195301, "date_fin_serie(YYYYMM)": 202212}}, {"type": "Feature", "geometry": {"type": "Point", "coordinates": [2.492, 48.809]}, "properties": {"nom": "ST-MAUR", "altitude": 48, "date_debut_serie(YYYYMM)": 195301, "date_fin_serie(YYYYMM)": 202212}}, {"type": "Feature", "geometry": {"type": "Point", "coordinates": [2.029, 49.09]}, "properties": {"nom": "PONTOISE - AERO", "altitude": 87, "date_debut_serie(YYYYMM)": 195301, "date_fin_serie(YYYYMM)": 202212}}, {"type": "Feature", "geometry": {"type": "Point", "coordinates": [2.428, 48.967]}, "properties": {"nom": "LE BOURGET", "altitude": 49, "date_debut_serie(YYYYMM)": 195301, "date_fin_serie(YYYYMM)": 202212}}]}